var points = 
{"type":"FeatureCollection","crs":{"type":"name","properties":{"name":"EPSG:4326"}},"features":[
    {"type":"Feature","id":0,"geometry":{"type":"Point","coordinates":[-6.8448083860869042,34.003706246913474]},"properties":{"FID":0,"id":1,"nom":"travelators"}},
    {"type":"Feature","id":1,"geometry":{"type":"Point","coordinates":[-6.844825870298842,34.003447869114837]},"properties":{"FID":1,"id":2,"nom":"travelators"}},
    {"type":"Feature","id":2,"geometry":{"type":"Point","coordinates":[-6.8450415089127432,34.003614940473355]},"properties":{"FID":2,"id":3,"nom":"salle de prière"}},
    {"type":"Feature","id":3,"geometry":{"type":"Point","coordinates":[-6.8451056176898497,34.003629510649972]},"properties":{"FID":3,"id":4,"nom":"toilettes"}},
    {"type":"Feature","id":4,"geometry":{"type":"Point","coordinates":[-6.8451114457604954,34.003527519413666]},"properties":{"FID":4,"id":5,"nom":"toilettes"}},
    {"type":"Feature","id":5,"geometry":{"type":"Point","coordinates":[-6.8450453942931739,34.003517805962588]},"properties":{"FID":5,"id":6,"nom":"baby changing room"}},
    {"type":"Feature","id":6,"geometry":{"type":"Point","coordinates":[-6.8448287843341653,34.003287597172083]},"properties":{"FID":6,"id":7,"nom":"ascenseurs"}},
    {"type":"Feature","id":7,"geometry":{"type":"Point","coordinates":[-6.8451065890349572,34.003143838096143]},"properties":{"FID":7,"id":8,"nom":"ascenseurs"}},
    {"type":"Feature","id":8,"geometry":{"type":"Point","coordinates":[-6.845043451602959,34.002958311180578]},"properties":{"FID":8,"id":9,"nom":"travelators"}},
    {"type":"Feature","id":9,"geometry":{"type":"Point","coordinates":[-6.8450521937089279,34.002848549183419]},"properties":{"FID":9,"id":10,"nom":"desk d'accueil"}},
    {"type":"Feature","id":10,"geometry":{"type":"Point","coordinates":[-6.8459097435061258,34.002838386002757]},"properties":{"FID":10,"id":11,"nom":"accès parking"}},
    {"type":"Feature","id":11,"geometry":{"type":"Point","coordinates":[-6.845586433518144,34.003449811805062]},"properties":{"FID":11,"id":12,"nom":"escaliers"}},
    {"type":"Feature","id":12,"geometry":{"type":"Point","coordinates":[-6.8453377691705812,34.003984051614289]},"properties":{"FID":12,"id":13,"nom":"travelators"}},
    {"type":"Feature","id":13,"geometry":{"type":"Point","coordinates":[-6.845963315419918,34.003995707755578]},"properties":{"FID":13,"id":13,"nom":"travelors"}}]}